[
  {
    "nombre": "Pl. Pere Cornell Almassora",
    "lat": 39.94525,
    "lng": -0.064488,
    "radioAlcance": 600,
    "bandas": [
      "700 MHz",
      "800 MHz",
      "900 MHz",
      "1800 MHz",
      "2100 MHz",
      "2600 MHz",
      "3500 MHz"
    ]
  },
  {
    "nombre": "Cl. Constitució Espanyola, Almassora",
    "lat": 39.949305,
    "lng": -0.06116,
    "radioAlcance": 600,
    "bandas": [
      "700 MHz",
      "800 MHz",
      "900 MHz",
      "2100 MHz",
      "2600 MHz"
    ]
  },
  {
    "nombre": "Av. Mediterranea, Almassora",
    "lat": 39.921372,
    "lng": -0.005818,
    "radioAlcance": 4000,
    "bandas": [
      "700 MHz",
      "800 MHz",
      "900 MHz",
      "1800 MHz",
      "2100 MHz",
      "2600 MHz",
      "3500 MHz"
    ]
  },
  {
    "nombre": "Cl. Illes Columbretes, Almassora",
    "lat": 39.938945,
    "lng": -0.000054,
    "radioAlcance": 1000,
    "bandas": [
      "700 MHz",
      "800 MHz",
      "2100 MHz",
      "2600 MHz"
    ]
  },
  {
    "nombre": "Cementeri, Almassora",
    "lat": 39.956251,
    "lng": -0.067484,
    "radioAlcance": 800,
    "bandas": [
      "700 MHz",
      "800 MHz",
      "900 MHz",
      "1800 MHz",
      "3500 MHz"
    ]
  },
  {
    "nombre": "Cl, de la Industria",
    "lat": 39.952702,
    "lng": -0.074104,
    "radioAlcance": 600,
    "bandas": [
      "700 MHz",
      "800 MHz",
      "900 MHz",
      "1800 MHz",
      "3500 MHz"
    ]
  },
  {
    "nombre": "Av. Borriana",
    "lat": 39.940864,
    "lng": -0.060167,
    "radioAlcance": 1000,
    "bandas": [
      "700 MHz",
      "800 MHz",
      "900 MHz",
      "1800 MHz",
      "2100 MHz",
      "2600 MHz",
      "3500 MHz"
    ]
  },
  {
    "nombre": "Cl. Torralba del Pinar",
    "lat": 39.981847,
    "lng": -0.019537,
    "radioAlcance": 1000,
    "bandas": [
      "700 MHz",
      "800 MHz",
      "900 MHz",
      "2600 MHz",
      "3500 MHz"
    ]
  },
  {
    "nombre": "Rotonda UJI, Castelló",
    "lat": 39.996524,
    "lng": -0.073471,
    "radioAlcance": 1000,
    "bandas": [
      "700 MHz",
      "800 MHz",
      "900 MHz",
      "1800 MHz",
      "2100 MHz",
      "2600 MHz",
      "3500 MHz"
    ]
  },
  {
    "nombre": "Estadi de la Ceràmica",
    "lat": 39.944136,
    "lng": -0.103506,
    "radioAlcance": 100,
    "bandas": [
      "2600 MHz",
      "3500 MHz",
      "26 GHz"
    ]
  },
  {
    "nombre": "CM Hostalazos, ALMASSORA",
    "lat": 39.95769,
    "lng": -0.083835,
    "radioAlcance": 600,
    "bandas": [
      "700 MHz",
      "800 MHz",
      "900 MHz",
      "1800 MHz",
      "2100 MHz"
    ]
  },
  {
    "nombre": "CR CARRETERA NACIONAL, ALMASSORA",
    "lat": 39.95945,
    "lng": -0.078696,
    "radioAlcance": 800,
    "bandas": [
      "800 MHz",
      "900 MHz",
      "1800 MHz",
      "2100 MHz"
    ]
  },
  {
    "nombre": "CL JOSE BERTOMEU GIMENO, 12. CASTELLÓ DE LA PLANA",
    "lat": 39.991716,
    "lng": -0.064679,
    "radioAlcance": 650,
    "bandas": [
      "700 MHz",
      "800 MHz",
      "900 MHz",
      "1800 MHz",
      "2100 MHz",
      "2600 MHz",
      "3500 MHz"
    ]
  },
  {
    "nombre": "CL Castellfort, 67. CASTELLÓ DE LA PLANA",
    "lat": 39.989825,
    "lng": -0.053247,
    "radioAlcance": 600,
    "bandas": [
      "700 MHz",
      "800 MHz",
      "900 MHz",
      "1800 MHz",
      "3500 MHz"
    ]
  },
  {
    "nombre": "Estació de Castelló, Castelló",
    "lat": 39.988379,
    "lng": -0.052266,
    "radioAlcance": 100,
    "bandas": [
      "700 MHz",
      "800 MHz",
      "900 MHz",
      "2600 MHz",
      "3500 MHz"
    ]
  },
  {
    "nombre": "AV PUERTO, 12. CASTELLÓ DE LA PLANA",
    "lat": 39.972018,
    "lng": 0.012419,
    "radioAlcance": 600,
    "bandas": [
      "800 MHz",
      "900 MHz",
      "1800 MHz"
    ]
  },
  {
    "nombre": "CCSalera",
    "lat": 39.979751,
    "lng": -0.063128,
    "radioAlcance": 500,
    "bandas": [
      "700 MHz",
      "800 MHz",
      "900 MHz",
      "1800 MHz",
      "2100 MHz",
      "2600 MHz",
      "3500 MHz"
    ]
  },
  {
    "nombre": "CL Cronista Revest, 16. CASTELLÓ DE LA PLANA, CASTELLÓN/CASTELLÓ",
    "lat": 39.980376,
    "lng": -0.032374,
    "radioAlcance": 600,
    "bandas": [
      "700 MHz",
      "800 MHz",
      "900 MHz",
      "1800 MHz",
      "2100 MHz",
      "2600 MHz",
      "3500 MHz"
    ]
  },
  {
    "nombre": "AV REY DON JAIME, 23. CASTELLÓ DE LA PLANA, CASTELLÓN/CASTELLÓ",
    "lat": 39.986874,
    "lng": -0.040281,
    "radioAlcance": 500,
    "bandas": [
      "700 MHz",
      "800 MHz",
      "900 MHz",
      "1800 MHz",
      "2100 MHz",
      "2600 MHz",
      "3500 MHz"
    ]
  },
  {
    "nombre": "VP PS MORELLA, 1. CASTELLÓ DE LA PLANA, CASTELLÓN/CASTELLÓ",
    "lat": 39.987824,
    "lng": -0.04784,
    "radioAlcance": 300,
    "bandas": [
      "700 MHz",
      "800 MHz",
      "900 MHz",
      "1800 MHz",
      "2100 MHz",
      "2600 MHz",
      "3500 MHz"
    ]
  },
  {
    "nombre": "El Corte Ingles Interior",
    "lat": 39.98775,
    "lng": -0.047915,
    "radioAlcance": 100,
    "bandas": [
      "26 GHz"
    ]
  },
  {
    "nombre": "CL MAGALLANES, 39. CASTELLÓ DE LA PLANA, CASTELLÓN/CASTELLÓ",
    "lat": 39.975694,
    "lng": 0.013057,
    "radioAlcance": 1000,
    "bandas": [
      "700 MHz",
      "800 MHz",
      "900 MHz",
      "1800 MHz",
      "2100 MHz",
      "2600 MHz",
      "3500 MHz"
    ]
  },
  {
    "nombre": "AV Golf, 2. CASTELLÓ DE LA PLANA, CASTELLÓN/CASTELLÓ",
    "lat": 39.991934,
    "lng": 0.0251,
    "radioAlcance": 1000,
    "bandas": [
      "700 MHz",
      "800 MHz",
      "900 MHz",
      "1800 MHz",
      "2100 MHz",
      "2600 MHz",
      "3500 MHz"
    ]
  },
  {
    "nombre": "Aptos. Ayca, Castelló",
    "lat": 39.982858,
    "lng": 0.020653,
    "radioAlcance": 500,
    "bandas": [
      "700 MHz",
      "800 MHz",
      "2100 MHz",
      "2600 MHz"
    ]
  },
  {
    "nombre": "PG 6 PARCELA 1221 MONTECILLO, S/N. ADEMUZ, VALENCIA/VALÈNCIA",
    "lat": 40.068203,
    "lng": -1.283212,
    "radioAlcance": 1700,
    "bandas": [
      "700 MHz",
      "800 MHz",
      "900 MHz",
      "2100 MHz",
      "2600 MHz",
      "3500 MHz"
    ]
  },
  {
    "nombre": "VP PL POL 6-R.S 347 Pol 6 Par 347EL PANSERO, S/N. TORREBAJA, VALENCIA/VALÈNCIA",
    "lat": 40.098444,
    "lng": -1.26199,
    "radioAlcance": 2000,
    "bandas": [
      "700 MHz",
      "900 MHz",
      "1800 MHz",
      "2100 MHz",
      "2600 MHz"
    ]
  },
  {
    "nombre": "VP POLÍGONO 72 PARCELA 51, S/N. CASTELLÓ DE LA PLANA, CASTELLÓN/CASTELLÓ",
    "lat": 39.961851,
    "lng": -0.06448,
    "radioAlcance": 700,
    "bandas": [
      "700 MHz",
      "800 MHz",
      "900 MHz"
    ]
  },
  {
    "nombre": "CR VALENCIA, 251. CASTELLÓ DE LA PLANA, CASTELLÓN/CASTELLÓ",
    "lat": 39.970518,
    "lng": -0.058569,
    "radioAlcance": 700,
    "bandas": [
      "700 MHz",
      "800 MHz",
      "900 MHz",
      "1800 MHz",
      "3500 MHz"
    ]
  },
  {
    "nombre": "AV Valencia, 73-B. CASTELLÓ DE LA PLANA, CASTELLÓN/CASTELLÓ",
    "lat": 39.975443,
    "lng": -0.048612,
    "radioAlcance": 600,
    "bandas": [
      "700 MHz",
      "800 MHz",
      "900 MHz",
      "1800 MHz",
      "2100 MHz",
      "2600 MHz",
      "3500 MHz"
    ]
  },
  {
    "nombre": "CL Manuel Azaña, 15. CASTELLÓ DE LA PLANA, CASTELLÓN/CASTELLÓ",
    "lat": 39.977248,
    "lng": -0.05542,
    "radioAlcance": 600,
    "bandas": [
      "700 MHz",
      "800 MHz",
      "900 MHz",
      "1800 MHz",
      "2100 MHz"
    ]
  },
  {
    "nombre": "AV Valencia, 12. CASTELLÓ DE LA PLANA, CASTELLÓN/CASTELLÓ",
    "lat": 39.980129,
    "lng": -0.04313,
    "radioAlcance": 600,
    "bandas": [
      "700 MHz",
      "800 MHz",
      "900 MHz",
      "1800 MHz",
      "2100 MHz",
      "2600 MHz",
      "3500 MHz"
    ]
  },
  {
    "nombre": "CM VILLAMARGO, S/N. CASTELLÓ DE LA PLANA, CASTELLÓN/CASTELLÓ",
    "lat": 39.966267,
    "lng": -0.031393,
    "radioAlcance": 1600,
    "bandas": [
      "700 MHz",
      "800 MHz",
      "900 MHz",
      "1800 MHz",
      "2100 MHz",
      "2600 MHz",
      "3500 MHz"
    ]
  },
  {
    "nombre": "CL LAS ERAS, 11. CASTELLÓ DE LA PLANA, CASTELLÓN/CASTELLÓ",
    "lat": 40.009711,
    "lng": 0.024891,
    "radioAlcance": 1000,
    "bandas": [
      "800 MHz",
      "900 MHz",
      "1800 MHz",
      "2600 MHz"
    ]
  },
  {
    "nombre": "CL Apostol Santiago, 66. BENICÀSSIM/BENICASSIM, CASTELLÓN/CASTELLÓ",
    "lat": 40.025971,
    "lng": 0.041767,
    "radioAlcance": 700,
    "bandas": [
      "700 MHz",
      "800 MHz",
      "900 MHz",
      "1800 MHz",
      "2100 MHz",
      "2600 MHz",
      "3500 MHz"
    ]
  },
  {
    "nombre": "VP PL POLIGONO 7 (SUP), 195. BENICÀSSIM/BENICASSIM, CASTELLÓN/CASTELLÓ",
    "lat": 40.047756,
    "lng": 0.055522,
    "radioAlcance": 570,
    "bandas": [
      "700 MHz",
      "800 MHz",
      "900 MHz",
      "1800 MHz",
      "2100 MHz",
      "2600 MHz",
      "3500 MHz"
    ]
  },
  {
    "nombre": "CL Senia Sevilla, 24. BENICASIM/BENICÀSSIM, CASTELLÓN/CASTELLÓ",
    "lat": 40.038228,
    "lng": 0.047293,
    "radioAlcance": 600,
    "bandas": [
      "700 MHz",
      "800 MHz",
      "900 MHz",
      "1800 MHz",
      "2100 MHz",
      "2600 MHz",
      "3500 MHz"
    ]
  },
  {
    "nombre": "AV Gran Avinguda Jaume I, 364. BENICASIM/BENICÀSSIM, CASTELLÓN/CASTELLÓ",
    "lat": 40.036883,
    "lng": 0.039152,
    "radioAlcance": 500,
    "bandas": [
      "700 MHz",
      "800 MHz",
      "900 MHz",
      "1800 MHz",
      "2100 MHz"
    ]
  },
  {
    "nombre": "CL Ribalta, 4. BENICÀSSIM/BENICASSIM, CASTELLÓN/CASTELLÓ",
    "lat": 40.031825,
    "lng": 0.045426,
    "radioAlcance": 450,
    "bandas": [
      "700 MHz",
      "800 MHz",
      "900 MHz",
      "1800 MHz",
      "2100 MHz"
    ]
  },
  {
    "nombre": "CL Corte, 77. BENICASIM/BENICÀSSIM, CASTELLÓN/CASTELLÓ",
    "lat": 40.048368,
    "lng": 0.068093,
    "radioAlcance": 450,
    "bandas": [
      "700 MHz",
      "800 MHz",
      "900 MHz",
      "1800 MHz",
      "3500 MHz"
    ]
  },
  {
    "nombre": "CL LAS VEGAS, 9. BENICÀSSIM/BENICASSIM, CASTELLÓN/CASTELLÓ",
    "lat": 40.050844,
    "lng": 0.067184,
    "radioAlcance": 630,
    "bandas": [
      "700 MHz",
      "800 MHz",
      "900 MHz",
      "1800 MHz",
      "2100 MHz",
      "2600 MHz",
      "3500 MHz"
    ]
  },
  {
    "nombre": "AV Gran Avinguda Jaume I, 139. BENICÀSSIM/BENICASSIM, CASTELLÓN/CASTELLÓ",
    "lat": 40.047789,
    "lng": 0.062732,
    "radioAlcance": 600,
    "bandas": [
      "700 MHz",
      "800 MHz",
      "900 MHz",
      "1800 MHz",
      "2100 MHz",
      "2600 MHz",
      "3500 MHz"
    ]
  },
  {
    "nombre": "AV Ferrandis Salvador, 116. BENICASIM/BENICÀSSIM, CASTELLÓN/CASTELLÓ",
    "lat": 40.04029,
    "lng": 0.054374,
    "radioAlcance": 600,
    "bandas": [
      "700 MHz",
      "800 MHz",
      "900 MHz",
      "1800 MHz",
      "2100 MHz",
      "2600 MHz",
      "3500 MHz"
    ]
  },
  {
    "nombre": "VP URBANIZACIÓN COMA FASE 2, 11. BORRIOL, CASTELLÓN/CASTELLÓ",
    "lat": 40.026514,
    "lng": -0.053279,
    "radioAlcance": 2000,
    "bandas": [
      "700 MHz",
      "800 MHz",
      "900 MHz",
      "1800 MHz",
      "2100 MHz"
    ]
  },
  {
    "nombre": "PS Neptuno, 4. VALÈNCIA, VALENCIA/VALÈNCIA",
    "lat": 39.463242,
    "lng": -0.32326,
    "radioAlcance": 700,
    "bandas": [
      "700 MHz",
      "800 MHz",
      "900 MHz",
      "1800 MHz",
      "2100 MHz",
      "2600 MHz",
      "3500 MHz"
    ]
  },
  {
    "nombre": "CL Eugenia Vi±es, 101. VALÈNCIA, VALENCIA/VALÈNCIA",
    "lat": 39.466564,
    "lng": -0.325491,
    "radioAlcance": 600,
    "bandas": [
      "700 MHz",
      "800 MHz",
      "900 MHz",
      "1800 MHz",
      "2100 MHz",
      "2600 MHz",
      "3500 MHz"
    ]
  },
  {
    "nombre": "CL Cavite, 19. VALÈNCIA, VALENCIA/VALÈNCIA",
    "lat": 39.478092,
    "lng": -0.326977,
    "radioAlcance": 900,
    "bandas": [
      "700 MHz",
      "800 MHz",
      "900 MHz",
      "1800 MHz",
      "2100 MHz",
      "2600 MHz",
      "3500 MHz"
    ]
  },
  {
    "nombre": "AV Malvarrosa, 144. VALÈNCIA, VALENCIA/VALÈNCIA",
    "lat": 39.484087,
    "lng": -0.327573,
    "radioAlcance": 700,
    "bandas": [
      "700 MHz",
      "800 MHz",
      "900 MHz",
      "1800 MHz",
      "2100 MHz",
      "2600 MHz",
      "3500 MHz"
    ]
  },
  {
    "nombre": "CL Patacona, 9. ALBORAIA/ALBORAYA, VALENCIA/VALÈNCIA",
    "lat": 39.493477,
    "lng": -0.329182,
    "radioAlcance": 1000,
    "bandas": [
      "700 MHz",
      "800 MHz",
      "900 MHz",
      "1800 MHz",
      "2100 MHz"
    ]
  },
  {
    "nombre": "AV GIORGETA, 41. VALÈNCIA, VALENCIA/VALÈNCIA",
    "lat": 39.459117,
    "lng": -0.384173,
    "radioAlcance": 400,
    "bandas": [
      "1800 MHz",
      "2100 MHz",
      "3500 MHz"
    ]
  },
  {
    "nombre": "PS LLUIS SAIZ DIAZ, 6 A. ALBORAIA/ALBORAYA, VALENCIA/VALÈNCIA",
    "lat": 39.510456,
    "lng": -0.320932,
    "radioAlcance": 1000,
    "bandas": [
      "700 MHz",
      "800 MHz",
      "900 MHz",
      "1800 MHz",
      "2100 MHz"
    ]
  },
  {
    "nombre": "PG 3 PARCELA 499, S/N. ALBORAIA/ALBORAYA, VALENCIA/VALÈNCIA",
    "lat": 39.510199,
    "lng": -0.330904,
    "radioAlcance": 900,
    "bandas": [
      "700 MHz",
      "800 MHz",
      "900 MHz",
      "1800 MHz",
      "2100 MHz",
      "2600 MHz",
      "3500 MHz"
    ]
  },
  {
    "nombre": "CCSalera Interior",
    "lat": 39.979923,
    "lng": -0.062678,
    "radioAlcance": 270,
    "bandas": [
      "26 GHz"
    ]
  },
  {
    "nombre": "CL Maria Rosa Molas, 25. CASTELLÓ DE LA PLANA, CASTELLÓN/CASTELLÓ",
    "lat": 39.997264,
    "lng": -0.036511,
    "radioAlcance": 500,
    "bandas": [
      "700 MHz",
      "800 MHz",
      "900 MHz",
      "1800 MHz",
      "2100 MHz",
      "2600 MHz",
      "3500 MHz"
    ]
  },
  {
    "nombre": "VP Mediterrania, 74. BORRIANA/BURRIANA, CASTELLÓN/CASTELLÓ",
    "lat": 39.868798,
    "lng": -0.068074,
    "radioAlcance": 1000,
    "bandas": [
      "700 MHz",
      "800 MHz",
      "900 MHz",
      "1800 MHz",
      "2100 MHz",
      "2600 MHz",
      "3500 MHz"
    ]
  },
  {
    "nombre": "AV MEDITERRANEO 1, 36C. BORRIANA/BURRIANA, CASTELLÓN/CASTELLÓ",
    "lat": 39.861461,
    "lng": -0.066326,
    "radioAlcance": 500,
    "bandas": [
      "700 MHz",
      "800 MHz",
      "900 MHz",
      "1800 MHz",
      "2100 MHz",
      "2600 MHz",
      "3500 MHz"
    ]
  },
  {
    "nombre": "Arenal Sound (Ocasional)",
    "lat": 39.864508,
    "lng": -0.068686,
    "radioAlcance": 350,
    "bandas": [
      "700 MHz",
      "800 MHz",
      "900 MHz",
      "1800 MHz",
      "2100 MHz",
      "2600 MHz",
      "3500 MHz",
      "26 GHz"
    ]
  },
  {
    "nombre": "Av. Mediterranea, Borriana",
    "lat": 39.8756,
    "lng": -0.055903,
    "radioAlcance": 700,
    "bandas": [
      "700 MHz",
      "800 MHz",
      "900 MHz",
      "1800 MHz",
      "2100 MHz",
      "2600 MHz"
    ]
  },
  {
    "nombre": "CL Trabajo, 2. BORRIANA/BURRIANA, CASTELLÓN/CASTELLÓ",
    "lat": 39.887677,
    "lng": -0.086732,
    "radioAlcance": 1000,
    "bandas": [
      "700 MHz",
      "800 MHz",
      "900 MHz",
      "1800 MHz",
      "2100 MHz",
      "2600 MHz",
      "3500 MHz"
    ]
  },
  {
    "nombre": "Carrer Roma, 2, 12530 Borriana, Castelló",
    "lat": 39.884071,
    "lng": -0.070859,
    "radioAlcance": 1000,
    "bandas": [
      "700 MHz",
      "800 MHz",
      "900 MHz",
      "2100 MHz",
      "2600 MHz"
    ]
  },
  {
    "nombre": "CL Jaime Chicharro, 63. ALQUERIES, LES/ALQUERÍAS DEL NIÑO PERDIDO, CASTELLÓN/CASTELLÓ",
    "lat": 39.89418,
    "lng": -0.108469,
    "radioAlcance": 1000,
    "bandas": [
      "700 MHz",
      "800 MHz",
      "900 MHz",
      "1800 MHz",
      "2100 MHz",
      "2600 MHz",
      "3500 MHz"
    ]
  },
  {
    "nombre": "Roig Arena",
    "lat": 39.448944,
    "lng": -0.364587,
    "radioAlcance": 700,
    "bandas": [
      "700 MHz",
      "800 MHz",
      "900 MHz",
      "1800 MHz",
      "2100 MHz",
      "2600 MHz",
      "3500 MHz"
    ]
  },
  {
    "nombre": "Roig Arena Interior",
    "lat": 39.449135,
    "lng": -0.364341,
    "radioAlcance": 150,
    "bandas": [
      "2600 MHz",
      "3500 MHz",
      "26 GHz"
    ]
  },
  {
    "nombre": "VP PS PILAR COLOMA, 31. BENICÀSSIM/BENICASSIM, CASTELLÓN/CASTELLÓ",
    "lat": 40.054342,
    "lng": 0.077897,
    "radioAlcance": 700,
    "bandas": [
      "700 MHz",
      "800 MHz",
      "900 MHz",
      "1800 MHz",
      "2100 MHz",
      "2600 MHz",
      "3500 MHz"
    ]
  },
  {
    "nombre": "VP PLAYETAS, 100. ORPESA/OROPESA DEL MAR, CASTELLÓN/CASTELLÓ",
    "lat": 40.059044,
    "lng": 0.094097,
    "radioAlcance": 600,
    "bandas": [
      "700 MHz",
      "800 MHz",
      "900 MHz",
      "1800 MHz",
      "2100 MHz",
      "2600 MHz",
      "3500 MHz"
    ]
  },
  {
    "nombre": "CL PORTAZGO (HOTEL TERMALISMO), S/N. BENICASIM/BENICÀSSIM, CASTELLÓN/CASTELLÓ",
    "lat": 40.058132,
    "lng": 0.087451,
    "radioAlcance": 700,
    "bandas": [
      "800 MHz",
      "900 MHz",
      "1800 MHz"
    ]
  },
  {
    "nombre": "PS MARITIMO MEDITERRANEO, 103. OROPESA DEL MAR/ORPESA, CASTELLÓN/CASTELLÓ",
    "lat": 40.106691,
    "lng": 0.152167,
    "radioAlcance": 600,
    "bandas": [
      "700 MHz",
      "800 MHz",
      "900 MHz",
      "1800 MHz",
      "2100 MHz",
      "2600 MHz",
      "3500 MHz"
    ]
  },
  {
    "nombre": "AV Central, 00010. ORPESA/OROPESA DEL MAR, CASTELLÓN/CASTELLÓ",
    "lat": 40.112099,
    "lng": 0.149871,
    "radioAlcance": 600,
    "bandas": [
      "700 MHz",
      "800 MHz",
      "900 MHz",
      "1800 MHz",
      "2100 MHz",
      "2600 MHz",
      "3500 MHz"
    ]
  },
  {
    "nombre": "CL Luxemburgo, 70. CASTELLÓ DE LA PLANA, CASTELLÓN/CASTELLÓ",
    "lat": 39.973223,
    "lng": -0.068986,
    "radioAlcance": 700,
    "bandas": [
      "700 MHz",
      "800 MHz",
      "900 MHz",
      "1800 MHz",
      "2100 MHz",
      "2600 MHz",
      "3500 MHz"
    ]
  },
  {
    "nombre": "VP POLÍGONO 79 PARCELA 47, S/N. CASTELLÓ DE LA PLANA, CASTELLÓN/CASTELLÓ",
    "lat": 39.97934,
    "lng": -0.092096,
    "radioAlcance": 1700,
    "bandas": [
      "700 MHz",
      "800 MHz",
      "900 MHz",
      "1800 MHz"
    ]
  },
  {
    "nombre": "AV Francesc Tarrega, 24. VILA-REAL, CASTELLÓN/CASTELLÓ",
    "lat": 39.938503,
    "lng": -0.097016,
    "radioAlcance": 800,
    "bandas": [
      "700 MHz",
      "800 MHz",
      "900 MHz",
      "1800 MHz",
      "2100 MHz",
      "2600 MHz",
      "3500 MHz"
    ]
  },
  {
    "nombre": "CL Matilde Salvador, 1. VILA-REAL, CASTELLÓN/CASTELLÓ",
    "lat": 39.92881,
    "lng": -0.104939,
    "radioAlcance": 500,
    "bandas": [
      "700 MHz",
      "800 MHz",
      "900 MHz",
      "1800 MHz",
      "3500 MHz"
    ]
  },
  {
    "nombre": "CL Calvari, 2. VILA-REAL, CASTELLÓN/CASTELLÓ",
    "lat": 39.942684,
    "lng": -0.103093,
    "radioAlcance": 600,
    "bandas": [
      "700 MHz",
      "800 MHz",
      "900 MHz",
      "1800 MHz",
      "2100 MHz",
      "2600 MHz",
      "3500 MHz"
    ]
  },
  {
    "nombre": "PZ Ayuntamiento, 25. VALÈNCIA, VALENCIA/VALÈNCIA",
    "lat": 39.468986,
    "lng": -0.375866,
    "radioAlcance": 500,
    "bandas": [
      "700 MHz",
      "800 MHz",
      "900 MHz",
      "1800 MHz",
      "2100 MHz",
      "2600 MHz",
      "3500 MHz"
    ]
  },
  {
    "nombre": "CL Pelayo, 00021. VALÈNCIA, VALENCIA/VALÈNCIA (MicroCelda)",
    "lat": 39.466386,
    "lng": -0.378728,
    "radioAlcance": 90,
    "bandas": [
      "2600 MHz",
      "3500 MHz"
    ]
  },
  {
    "nombre": "PJ Doctor Serra, 1. VALÈNCIA, VALENCIA/VALÈNCIA",
    "lat": 39.466733,
    "lng": -0.375193,
    "radioAlcance": 600,
    "bandas": [
      "700 MHz",
      "800 MHz",
      "900 MHz",
      "1800 MHz",
      "2100 MHz",
      "2600 MHz",
      "3500 MHz"
    ]
  },
  {
    "nombre": "CR Aeropuerto, 1. MANISES, VALENCIA/VALÈNCIA (Internas))",
    "lat": 39.491538,
    "lng": -0.473276,
    "radioAlcance": 250,
    "bandas": [
      "800 MHz",
      "900 MHz",
      "1800 MHz",
      "2100 MHz"
    ]
  },
  {
    "nombre": "CL AEROPUERTO, 18. MANISES, VALENCIA/VALÈNCIA",
    "lat": 39.488464,
    "lng": -0.468609,
    "radioAlcance": 700,
    "bandas": [
      "700 MHz",
      "800 MHz",
      "900 MHz",
      "1800 MHz",
      "2100 MHz",
      "2600 MHz",
      "3500 MHz"
    ]
  },
  {
    "nombre": "CL TRASLACION, 16. MANISES, VALENCIA/VALÈNCIA",
    "lat": 39.494197,
    "lng": -0.468163,
    "radioAlcance": 800,
    "bandas": [
      "700 MHz",
      "800 MHz",
      "900 MHz",
      "1800 MHz",
      "2100 MHz",
      "2600 MHz",
      "3500 MHz"
    ]
  },
  {
    "nombre": "VP PS GUILLERMO OSMA, 16. MANISES, VALENCIA/VALÈNCIA",
    "lat": 39.4893,
    "lng": -0.458499,
    "radioAlcance": 1000,
    "bandas": [
      "700 MHz",
      "800 MHz",
      "900 MHz",
      "1800 MHz",
      "2100 MHz",
      "2600 MHz",
      "3500 MHz"
    ]
  },
  {
    "nombre": "CL Jose Soto Mico, 44. VALÈNCIA, VALENCIA/VALÈNCIA",
    "lat": 39.439101,
    "lng": -0.389585,
    "radioAlcance": 700,
    "bandas": [
      "800 MHz",
      "900 MHz",
      "1800 MHz",
      "2100 MHz"
    ]
  },
  {
    "nombre": "CL Palancia, 44. SAGUNT/SAGUNTO, VALENCIA/VALÈNCIA",
    "lat": 39.662089,
    "lng": -0.218651,
    "radioAlcance": 760,
    "bandas": [
      "700 MHz",
      "800 MHz",
      "900 MHz",
      "1800 MHz",
      "2100 MHz",
      "2600 MHz",
      "3500 MHz"
    ]
  },
  {
    "nombre": "Sagunt Platja",
    "lat": 39.665217,
    "lng": -0.20951,
    "radioAlcance": 600,
    "bandas": [
      "700 MHz",
      "800 MHz",
      "900 MHz",
      "1800 MHz",
      "3500 MHz"
    ]
  },
  {
    "nombre": "CL Oviedo, 46. BENIDORM, ALICANTE/ALACANT",
    "lat": 38.526321,
    "lng": -0.164312,
    "radioAlcance": 750,
    "bandas": [
      "700 MHz",
      "800 MHz",
      "900 MHz",
      "1800 MHz",
      "2100 MHz",
      "2600 MHz",
      "3500 MHz"
    ]
  },
  {
    "nombre": "CL VIGO , 6. BENIDORM, ALICANTE/ALACANT",
    "lat": 38.534156,
    "lng": -0.157942,
    "radioAlcance": 750,
    "bandas": [
      "700 MHz",
      "800 MHz",
      "900 MHz",
      "1800 MHz",
      "2100 MHz",
      "2600 MHz",
      "3500 MHz"
    ]
  },
  {
    "nombre": "AV VICENTE LLORCA ALOS, 1. BENIDORM, ALICANTE/ALACANT (Micro)",
    "lat": 38.536128,
    "lng": -0.151499,
    "radioAlcance": 60,
    "bandas": [
      "2600 MHz",
      "3500 MHz"
    ]
  },
  {
    "nombre": "AV RACHARELL, 1. BENIDORM, ALICANTE/ALACANT",
    "lat": 38.53794,
    "lng": -0.146996,
    "radioAlcance": 850,
    "bandas": [
      "700 MHz",
      "800 MHz",
      "900 MHz",
      "1800 MHz",
      "2100 MHz",
      "2600 MHz",
      "3500 MHz"
    ]
  },
  {
    "nombre": "AV ARMADA ESPAÑOLA ESQ AV XIXO. BENIDORM, ALICANTE/ALACANT (Micro)",
    "lat": 38.537368,
    "lng": -0.144016,
    "radioAlcance": 60,
    "bandas": [
      "2600 MHz",
      "3500 MHz"
    ]
  },
  {
    "nombre": "AV REI JAUME, 1. BENIDORM, ALICANTE/ALACANT",
    "lat": 38.537378,
    "lng": -0.137941,
    "radioAlcance": 760,
    "bandas": [
      "700 MHz",
      "800 MHz",
      "900 MHz",
      "1800 MHz",
      "2100 MHz",
      "2600 MHz",
      "3500 MHz"
    ]
  },
  {
    "nombre": "CL CONDESTABLE ZARAGOZA, 23. BENIDORM, ALICANTE/ALACANT",
    "lat": 38.535079,
    "lng": -0.131903,
    "radioAlcance": 800,
    "bandas": [
      "700 MHz",
      "800 MHz",
      "900 MHz",
      "1800 MHz",
      "2100 MHz",
      "2600 MHz",
      "3500 MHz"
    ]
  },
  {
    "nombre": "AV ALCOY, 17. BENIDORM, ALICANTE/ALACANT",
    "lat": 38.536228,
    "lng": -0.121316,
    "radioAlcance": 750,
    "bandas": [
      "700 MHz",
      "800 MHz",
      "900 MHz",
      "1800 MHz",
      "2100 MHz",
      "2600 MHz",
      "3500 MHz"
    ]
  },
  {
    "nombre": "CL Bruselas, 2. BENIDORM, ALICANTE/ALACANT",
    "lat": 38.534588,
    "lng": -0.104724,
    "radioAlcance": 850,
    "bandas": [
      "700 MHz",
      "800 MHz",
      "900 MHz",
      "1800 MHz",
      "2100 MHz",
      "2600 MHz",
      "3500 MHz"
    ]
  },
  {
    "nombre": "AV MADRID, S/N. BENIDORM, ALICANTE/ALACANT",
    "lat": 38.534558,
    "lng": -0.110598,
    "radioAlcance": 76,
    "bandas": [
      "2600 MHz",
      "3500 MHz"
    ]
  },
  {
    "nombre": "VP JUNTO A POLÍGONO 13 PARCELA 55. BENIDORM, ALICANTE/ALACANT",
    "lat": 38.550796,
    "lng": -0.079557,
    "radioAlcance": 1000,
    "bandas": [
      "900 MHz",
      "2600 MHz"
    ]
  },
  {
    "nombre": "CL ASSAGADOR DE LA MARJAL, 2. DÉNIA, ALICANTE/ALACANT",
    "lat": 38.850433,
    "lng": 0.09385,
    "radioAlcance": 800,
    "bandas": [
      "700 MHz",
      "800 MHz",
      "900 MHz",
      "1800 MHz",
      "2100 MHz",
      "2600 MHz",
      "3500 MHz"
    ]
  },
  {
    "nombre": "VP PD BOVETES NORD B, 3. DÉNIA, ALICANTE/ALACANT",
    "lat": 38.850723,
    "lng": 0.081129,
    "radioAlcance": 800,
    "bandas": [
      "700 MHz",
      "800 MHz",
      "900 MHz",
      "1800 MHz",
      "2100 MHz",
      "2600 MHz",
      "3500 MHz"
    ]
  },
  {
    "nombre": "CL Virgen Ermitaña, 11. PENÍSCOLA/PEÑÍSCOLA, CASTELLÓN/CASTELLÓ",
    "lat": 40.359291,
    "lng": 0.402428,
    "radioAlcance": 700,
    "bandas": [
      "700 MHz",
      "800 MHz",
      "900 MHz",
      "1800 MHz",
      "2100 MHz",
      "3500 MHz"
    ]
  },
  {
    "nombre": "CL Don Antonio Pascual, 00033. PENÍSCOLA/PEÑÍSCOLA, CASTELLÓN/CASTELLÓ",
    "lat": 40.362835,
    "lng": 0.397176,
    "radioAlcance": 700,
    "bandas": [
      "700 MHz",
      "800 MHz",
      "900 MHz",
      "1800 MHz",
      "2100 MHz",
      "2600 MHz",
      "3500 MHz"
    ]
  },
  {
    "nombre": "CL Marjals, 00005. PENÍSCOLA/PEÑÍSCOLA, CASTELLÓN/CASTELLÓ",
    "lat": 40.367735,
    "lng": 0.402693,
    "radioAlcance": 700,
    "bandas": [
      "700 MHz",
      "800 MHz",
      "900 MHz",
      "1800 MHz",
      "2100 MHz",
      "3500 MHz"
    ]
  },
  {
    "nombre": "AV Papa Luna, 47. PENÍSCOLA/PEÑÍSCOLA, CASTELLÓN/CASTELLÓ",
    "lat": 40.376142,
    "lng": 0.405926,
    "radioAlcance": 700,
    "bandas": [
      "700 MHz",
      "800 MHz",
      "900 MHz",
      "1800 MHz",
      "2100 MHz",
      "2600 MHz",
      "3500 MHz"
    ]
  },
  {
    "nombre": "CL Teruel, 1. PENÍSCOLA/PEÑÍSCOLA, CASTELLÓN/CASTELLÓ",
    "lat": 40.386252,
    "lng": 0.409281,
    "radioAlcance": 700,
    "bandas": [
      "800 MHz",
      "900 MHz",
      "1800 MHz",
      "2100 MHz",
      "2600 MHz"
    ]
  },
  {
    "nombre": "CM LA VOLTA, S/N. PENÍSCOLA/PEÑÍSCOLA, CASTELLÓN/CASTELLÓ",
    "lat": 40.394407,
    "lng": 0.407422,
    "radioAlcance": 1250,
    "bandas": [
      "700 MHz",
      "800 MHz",
      "900 MHz",
      "1800 MHz",
      "2100 MHz",
      "2600 MHz",
      "3500 MHz"
    ]
  },
  {
    "nombre": "VP PD SOLAES, 148. BENICARLÓ, CASTELLÓN/CASTELLÓ",
    "lat": 40.406908,
    "lng": 0.422201,
    "radioAlcance": 750,
    "bandas": [
      "700 MHz",
      "800 MHz",
      "900 MHz",
      "1800 MHz",
      "2100 MHz"
    ]
  },
  {
    "nombre": "AV Corts Valencianes, 15. BENICARLÓ, CASTELLÓN/CASTELLÓ",
    "lat": 40.412548,
    "lng": 0.423832,
    "radioAlcance": 800,
    "bandas": [
      "700 MHz",
      "800 MHz",
      "900 MHz",
      "1800 MHz",
      "2100 MHz",
      "2600 MHz",
      "3500 MHz"
    ]
  },
  {
    "nombre": "CL Penyagolosa, 9. BENICARLÓ, CASTELLÓN/CASTELLÓ",
    "lat": 40.420766,
    "lng": 0.426922,
    "radioAlcance": 950,
    "bandas": [
      "700 MHz",
      "800 MHz",
      "900 MHz",
      "1800 MHz",
      "2100 MHz",
      "2600 MHz",
      "3500 MHz"
    ]
  },
  {
    "nombre": "CM TRAVESIA, 13. BENICARLÓ, CASTELLÓN/CASTELLÓ",
    "lat": 40.421117,
    "lng": 0.412878,
    "radioAlcance": 950,
    "bandas": [
      "700 MHz",
      "800 MHz",
      "900 MHz",
      "1800 MHz",
      "2100 MHz",
      "2600 MHz",
      "3500 MHz"
    ]
  },
  {
    "nombre": "CL Arcipreste Bono, 49. VINARÒS, CASTELLÓN/CASTELLÓ",
    "lat": 40.467144,
    "lng": 0.474097,
    "radioAlcance": 800,
    "bandas": [
      "800 MHz",
      "900 MHz",
      "1800 MHz",
      "3500 MHz"
    ]
  },
  {
    "nombre": "CL Almas, 8. VINARÒS, CASTELLÓN/CASTELLÓ",
    "lat": 40.473126,
    "lng": 0.477728,
    "radioAlcance": 900,
    "bandas": [
      "700 MHz",
      "800 MHz",
      "900 MHz",
      "1800 MHz",
      "2100 MHz",
      "2600 MHz",
      "3500 MHz"
    ]
  },
  {
    "nombre": "CR NACIONAL 340 - KM 1049. VINARÒS, CASTELLÓN/CASTELLÓ",
    "lat": 40.456756,
    "lng": 0.455015,
    "radioAlcance": 1250,
    "bandas": [
      "700 MHz",
      "800 MHz",
      "900 MHz",
      "1800 MHz",
      "2600 MHz"
    ]
  },
  {
    "nombre": "AV GIL D'ATROSILLO, 14. VINARÒS, CASTELLÓN/CASTELLÓ",
    "lat": 40.464156,
    "lng": 0.449431,
    "radioAlcance": 750,
    "bandas": [
      "700 MHz",
      "800 MHz",
      "900 MHz",
      "1800 MHz",
      "2100 MHz"
    ]
  },
  {
    "nombre": "AV Francisco Jose Balada, 00015. VINARÒS, CASTELLÓN/CASTELLÓ",
    "lat": 40.485702,
    "lng": 0.488484,
    "radioAlcance": 800,
    "bandas": [
      "700 MHz",
      "800 MHz",
      "900 MHz",
      "1800 MHz",
      "2100 MHz"
    ]
  },
  {
    "nombre": "CR DE LA COSTA, 130. VINARÒS, CASTELLÓN/CASTELLÓ",
    "lat": 40.493576,
    "lng": 0.495088,
    "radioAlcance": 750,
    "bandas": [
      "800 MHz",
      "900 MHz",
      "1800 MHz",
      "2100 MHz"
    ]
  },
  {
    "nombre": "CL Pietat, 104. VILA-REAL, CASTELLÓN/CASTELLÓ",
    "lat": 39.936066,
    "lng": -0.108619,
    "radioAlcance": 750,
    "bandas": [
      "700 MHz",
      "800 MHz",
      "900 MHz",
      "1800 MHz",
      "2100 MHz",
      "2600 MHz",
      "3500 MHz"
    ]
  },
  {
    "nombre": "CL Carlos Sarthou, 3. VILA-REAL, CASTELLÓN/CASTELLÓ",
    "lat": 39.935289,
    "lng": -0.098732,
    "radioAlcance": 750,
    "bandas": [
      "700 MHz",
      "800 MHz",
      "900 MHz",
      "1800 MHz",
      "2100 MHz",
      "2600 MHz",
      "3500 MHz"
    ]
  },
  {
    "nombre": "VP CARINYENA, 12. VILA-REAL, CASTELLÓN/CASTELLÓ",
    "lat": 39.924515,
    "lng": -0.097193,
    "radioAlcance": 750,
    "bandas": [
      "900 MHz",
      "1800 MHz"
    ]
  },
  {
    "nombre": "VP POLIGONO 10, PARCELA 28. ALQUERIES, LES/ALQUERÍAS DEL NIÑO PERDIDO, CASTELLÓN/CASTELLÓ",
    "lat": 39.896823,
    "lng": -0.129411,
    "radioAlcance": 2000,
    "bandas": [
      "700 MHz",
      "900 MHz",
      "1800 MHz"
    ]
  },
  {
    "nombre": "Poligon Industrial La Plana",
    "lat": 39.917768,
    "lng": -0.112052,
    "radioAlcance": 850,
    "bandas": [
      "700 MHz",
      "800 MHz",
      "2100 MHz",
      "2600 MHz"
    ]
  },
  {
    "nombre": "AV Argent, 5. BORRIANA/BURRIANA, CASTELLÓN/CASTELLÓ",
    "lat": 39.878457,
    "lng": -0.111558,
    "radioAlcance": 800,
    "bandas": [
      "700 MHz",
      "800 MHz",
      "900 MHz",
      "1800 MHz",
      "2100 MHz",
      "2600 MHz",
      "3500 MHz"
    ]
  },
  {
    "nombre": "CR CV Trece, S/N. BENLLOC, CASTELLÓN/CASTELLÓ",
    "lat": 40.206763,
    "lng": 0.069094,
    "radioAlcance": 750,
    "bandas": [
      "800 MHz",
      "900 MHz",
      "2100 MHz",
      "3500 MHz"
    ]
  },
  {
    "nombre": "PG 6. PARCELA 534, S/N. VILANOVA DALCOLEA, CASTELLÓN/CASTELLÓ",
    "lat": 40.231481,
    "lng": 0.076832,
    "radioAlcance": 1000,
    "bandas": [
      "800 MHz",
      "900 MHz"
    ]
  },
  {
    "nombre": "VP POLÍGONO 8 PARCELA 2, S/N. VILANOVA DALCOLEA, CASTELLÓN/CASTELLÓ",
    "lat": 40.222141,
    "lng": 0.047566,
    "radioAlcance": 1500,
    "bandas": [
      "700 MHz",
      "800 MHz",
      "900 MHz",
      "3500 MHz"
    ]
  },
  {
    "nombre": "VP POLÍGONO 22 PARCELA 54, S/N. BENLLOC, CASTELLÓN/CASTELLÓ",
    "lat": 40.206586,
    "lng": 0.032026,
    "radioAlcance": 950,
    "bandas": [
      "700 MHz",
      "800 MHz",
      "900 MHz",
      "1800 MHz",
      "3500 MHz"
    ]
  },
  {
    "nombre": "CR DE ZARAGOZA, 38. CABANES, CASTELLÓN/CASTELLÓ",
    "lat": 40.155499,
    "lng": 0.04063,
    "radioAlcance": 800,
    "bandas": [
      "700 MHz",
      "800 MHz",
      "900 MHz",
      "1800 MHz",
      "3500 MHz"
    ]
  },
  {
    "nombre": "CL POLIGONO 4 PARCELA 255, S/N. POBLA TORNESA (LA), CASTELLÓN/CASTELLÓ",
    "lat": 40.108915,
    "lng": 0.013604,
    "radioAlcance": 1500,
    "bandas": [
      "700 MHz",
      "800 MHz",
      "900 MHz",
      "1800 MHz",
      "3500 MHz"
    ]
  },
  {
    "nombre": "AV MALLORCA, 19. NULES, CASTELLÓN/CASTELLÓ",
    "lat": 39.827374,
    "lng": -0.110571,
    "radioAlcance": 1000,
    "bandas": [
      "700 MHz",
      "800 MHz",
      "900 MHz",
      "1800 MHz"
    ]
  }
]